     2.10           OBSERVATION DATA    G (GPS)             RINEX VERSION / TYPE
goGPS                                                       PGM / RUN BY / DATE 
SciBLDG_VRS3_master                                         MARKER NAME         
                                                            OBSERVER / AGENCY   
                                                            REC # / TYPE / VERS 
                                                            ANT # / TYPE        
 -3749535.4041  3683516.9954  3600859.2492                  APPROX POSITION XYZ 
        0.0000        0.0000        0.0000                  ANTENNA: DELTA H/E/N
     1     1                                                WAVELENGTH FACT L1/2
     6    C1    P2    L1    L2    S1    S2                  # / TYPES OF OBSERV 
     1.000                                                  INTERVAL            
  2013    10    21     5    22   33.0000000     GPS         TIME OF FIRST OBS   
                                                            END OF HEADER       
 13 10 21  5 22 33.0000000  0  7G01G04G13G17G20G23G28
  24541652.918 6  24541668.658 3 128967256.258 6 100493966.626 3        38.000 6
        21.000 3
  21110942.640 8  21110953.020 6 110938752.277 8  86445780.735 6        49.000 8
        41.000 6
  22755460.750 7  22755473.310 4 119580753.784 7  93179807.277 4        45.000 7
        29.000 4
  20233311.986 9  20233320.986 8 106326771.928 9  82852029.777 8        54.000 9
        50.000 8
  22208890.572 7  22208899.532 5 116708507.687 7  90941694.756 5        47.000 7
        34.000 5
  22419542.392 8  22419551.152 6 117815490.081 8  91804277.821 6        48.000 8
        36.000 6
  23317191.666 6  23317218.666 3 122532669.506 6  95480002.470 3        38.000 6
        20.000 3
 13 10 21  5 22 34.0000000  0  7G01G04G13G17G20G23G28
  24542124.818 6  24542140.398 3 128969734.924 6 100495898.048 3        38.000 6
        21.000 3
  21110668.340 8  21110678.740 6 110937312.074 8  86444658.505 6        49.000 8
        40.000 6
  22754957.970 7  22754970.370 4 119578110.036 7  93177747.220 4        45.000 7
        29.000 4
  20233282.506 9  20233291.966 8 106326616.870 9  82851908.951 8        54.000 9
        50.000 8
  22209437.672 7  22209446.472 5 116711382.835 7  90943935.135 5        46.000 7
        34.000 5
  22419388.552 8  22419397.332 6 117814680.979 8  91803647.356 6        48.000 8
        36.000 6
  23317806.386 6  23317833.406 3 122535898.349 6  95482518.425 3        38.000 6
        21.000 3
 13 10 21  5 22 35.0000000  0  7G01G04G13G17G20G23G28
  24542596.578 6  24542611.818 3 128972212.768 6 100497828.841 3        38.000 6
        22.000 3
  21110394.240 8  21110404.720 6 110935871.233 8  86443535.766 6        49.000 8
        40.000 6
  22754454.530 7  22754467.330 4 119575465.699 7  93175686.706 4        45.000 7
        29.000 4
  20233252.966 9  20233262.106 8 106326461.448 9  82851787.846 8        54.000 9
        50.000 8
  22209984.452 7  22209993.852 5 116714257.384 7  90946175.039 5        46.000 7
        34.000 5
  22419234.812 8  22419243.372 5 117813871.556 8  91803016.635 5        48.000 8
        35.000 5
  23318420.866 6  23318447.786 3 122539126.425 6  95485033.779 3        38.000 6
        21.000 3
 13 10 21  5 22 36.0000000  0  7G01G04G13G17G20G23G28
  24543067.978 6  24543083.278 3 128974690.178 6 100499759.303 3        38.000 6
        21.000 3
  21110119.840 8  21110130.420 6 110934430.092 8  86442412.807 6        49.000 8
        40.000 6
  22753951.830 7  22753963.710 5 119572821.197 7  93173626.061 5        45.000 7
        30.000 5
  20233223.326 9  20233232.426 8 106326306.106 9  82851666.795 8        54.000 9
        50.000 8
  22210531.732 7  22210540.812 5 116717131.610 7  90948414.698 5        46.000 7
        34.000 5
  22419080.752 8  22419089.532 6 117813062.170 8  91802385.947 6        48.000 8
        36.000 6
  23319034.626 6  23319061.686 3 122542354.147 6  95487548.850 3        39.000 6
        21.000 3
 13 10 21  5 22 37.0000000  0  7G01G04G13G17G20G23G28
  24543539.438 6  24543555.158 3 128977168.248 6 100501690.279 3        38.000 6
        22.000 3
  21109846.020 8  21109856.480 6 110932989.842 8  86441290.534 6        48.000 8
        40.000 6
  22753448.230 7  22753460.930 5 119570177.652 7  93171566.168 5        46.000 7
        30.000 5
  20233193.866 9  20233202.946 8 106326151.963 9  82851546.685 8        54.000 9
        50.000 8
  22211079.392 7  22211087.892 5 116720006.721 7  90950655.042 5        46.000 7
        35.000 5
  22418926.852 8  22418935.732 6 117812253.996 8  91801756.207 6        48.000 8
        36.000 6
  23319649.406 6  23319676.346 3 122545582.604 6  95490064.492 3        39.000 6
        21.000 3
 13 10 21  5 22 38.0000000  0  7G01G04G13G17G20G23G28
  24544011.178 6  24544026.578 3 128979646.551 6 100503621.437 3        39.000 6
        21.000 3
  21109571.860 8  21109582.680 6 110931550.007 8  86440168.587 6        48.000 8
        40.000 6
  22752945.090 7  22752957.810 5 119567534.661 7  93169506.698 5        46.000 7
        30.000 5
  20233165.106 9  20233174.146 8 106325998.571 9  82851427.163 8        54.000 9
        50.000 8
  22211626.172 7  22211634.612 5 116722882.287 7  90952895.739 5        46.000 7
        34.000 5
  22418773.372 8  22418782.132 6 117811446.557 8  91801127.042 6        48.000 8
        36.000 6
  23320263.586 6  23320290.546 3 122548811.382 6  95492580.376 3        38.000 6
        21.000 3
 13 10 21  5 22 39.0000000  0  7G01G04G13G17G20G23G28
  24544482.858 6  24544498.138 3 128982124.724 6 100505552.476 3        39.000 6
        21.000 3
  21109297.760 8  21109308.620 6 110930110.224 8  86439046.688 6        48.000 8
        40.000 6
  22752442.630 7  22752454.950 5 119564891.803 7  93167447.339 5        45.000 7
        30.000 5
  20233135.766 9  20233144.806 8 106325845.534 9  82851307.913 8        54.000 9
        50.000 8
  22212173.132 7  22212182.012 5 116725757.908 7  90955136.483 5        46.000 7
        34.000 5
  22418619.712 8  22418628.092 6 117810639.515 8  91800498.172 6        49.000 8
        36.000 6
  23320878.006 6  23320904.706 3 122552040.115 6  95495096.237 3        38.000 6
        20.000 3
 13 10 21  5 22 40.0000000  0  7G01G04G13G17G20G23G28
  24544955.098 6  24544969.858 3 128984605.271 6 100507485.368 3        39.000 6
        22.000 3
  21109024.560 8  21109035.200 6 110928672.993 8  86437926.766 6        48.000 8
        40.000 6
  22751939.330 7  22751952.550 5 119562251.610 7  93165390.044 5        45.000 7
        30.000 5
  20233106.886 9  20233116.326 8 106325695.392 9  82851190.914 8        55.000 9
        50.000 8
  22212720.892 7  22212729.692 5 116728636.080 7  90957379.214 5        46.000 7
        34.000 5
  22418466.672 8  22418475.492 6 117809835.345 8  91799871.554 6        48.000 8
        36.000 6
  23321493.306 6  23321519.826 3 122555271.337 6  95497614.033 3        39.000 6
        21.000 3
 13 10 21  5 22 41.0000000  0  7G01G04G13G17G20G23G28
  24545426.638 6  24545441.758 3 128987083.551 6 100509416.491 3        40.000 6
        22.000 3
  21108750.320 8  21108761.340 6 110927233.684 8  86436805.230 6        48.000 8
        40.000 6
  22751436.890 7  22751449.750 4 119559609.426 7  93163331.214 4        45.000 7
        29.000 4
  20233078.246 9  20233087.326 8 106325543.493 9  82851072.555 8        55.000 9
        50.000 8
  22213268.132 7  22213277.492 5 116731512.193 7  90959620.341 5        46.000 7
        34.000 5
  22418313.132 8  22418321.952 6 117809029.427 8  91799243.564 6        48.000 8
        36.000 6
  23322107.826 6  23322133.906 3 122558500.312 6  95500130.091 3        39.000 6
        20.000 3
 13 10 21  5 22 42.0000000  0  7G01G04G13G17G20G23G28
  24545897.558 6  24545913.058 3 128989561.957 6 100511347.713 3        39.000 6
        22.000 3
  21108476.580 8  21108487.220 6 110925794.731 8  86435683.967 6        49.000 8
        40.000 6
  22750934.270 7  22750946.850 5 119556967.704 7  93161272.739 5        45.000 7
        30.000 5
  20233049.486 9  20233058.826 8 106325392.274 9  82850954.722 8        55.000 9
        50.000 8
  22213815.212 7  22213824.452 5 116734388.652 7  90961861.734 5        46.000 7
        34.000 5
  22418160.012 8  22418168.732 6 117808224.188 8  91798616.109 6        49.000 8
        36.000 6
  23322722.006 6  23322748.826 3 122561729.578 6  95502646.357 3        39.000 6
        20.000 3
 13 10 21  5 22 43.0000000  0  7G01G04G13G17G20G23G28
  24546369.018 6  24546384.138 3 128992038.306 6 100513277.333 3        39.000 6
        21.000 3
  21108202.660 8  21108213.040 6 110924353.877 8  86434561.227 6        49.000 8
        40.000 6
  22750431.430 7  22750443.590 5 119554324.158 7  93159212.848 5        45.000 7
        30.000 5
  20233020.346 9  20233029.746 8 106325239.481 9  82850835.660 8        54.000 9
        50.000 8
  22214362.972 7  22214371.812 5 116737263.207 7  90964101.652 5        46.000 7
        34.000 5
  22418006.192 8  22418015.152 5 117807417.390 8  91797987.437 5        49.000 8
        35.000 5
  23323336.546 6  23323362.986 3 122564956.801 6  95505161.037 3        39.000 6
        20.000 3
 13 10 21  5 22 44.0000000  0  7G01G04G13G17G20G23G28
  24546840.638 6  24546855.118 3 128994515.235 6 100515207.398 3        39.000 6
        22.000 3
  21107928.660 8  21107939.300 6 110922913.713 8  86433439.020 6        49.000 8
        40.000 6
  22749928.550 7  22749941.070 5 119551681.417 7  93157153.577 5        45.000 7
        30.000 5
  20232991.646 9  20233000.606 8 106325087.689 9  82850717.385 8        54.000 9
        50.000 8
  22214909.732 7  22214918.412 5 116740138.468 7  90966342.111 5        46.000 7
        34.000 5
  22417853.272 8  22417861.632 5 117806611.606 8  91797359.554 5        49.000 8
        35.000 5
  23323950.366 6  23323977.046 3 122568184.659 6  95507676.212 3        40.000 6
        19.000 3
 13 10 21  5 22 45.0000000  0  7G01G04G13G17G20G23G28
  24547312.358 6  24547327.278 3 128996995.210 6 100517139.860 3        39.000 6
        22.000 3
  21107655.440 8  21107666.160 6 110921476.847 8  86432319.394 6        49.000 8
        40.000 6
  22749425.930 7  22749438.770 5 119549042.080 7  93155096.959 5        45.000 7
        30.000 5
  20232963.566 9  20232972.646 8 106324939.545 9  82850601.946 8        55.000 9
        50.000 8
  22215457.472 7  22215466.392 5 116743017.060 7  90968585.173 5        46.000 7
        34.000 5
  22417700.372 8  22417709.192 6 117805809.433 8  91796734.490 6        48.000 8
        36.000 6
  23324565.566 6  23324591.546 3 122571415.691 6  95510193.867 3        40.000 6
        19.000 3
 13 10 21  5 22 46.0000000  0  7G01G04G13G17G20G23G28
  24547783.758 6  24547798.838 3 128999472.965 6 100519070.584 3        39.000 6
        23.000 3
  21107381.280 8  21107392.100 6 110920037.966 8  86431198.196 6        50.000 8
        40.000 6
  22748923.190 7  22748935.930 5 119546400.800 7  93153038.825 5        45.000 7
        30.000 5
  20232935.086 9  20232944.166 8 106324789.697 9  82850485.184 8        55.000 9
        50.000 8
  22216005.092 7  22216013.652 5 116745893.614 7  90970826.643 5        46.000 7
        34.000 5
  22417547.392 8  22417556.032 5 117805005.578 8  91796108.114 5        48.000 8
        35.000 5
  23325180.366 6  23325206.166 3 122574644.595 6  95512709.853 3        40.000 6
        19.000 3
 13 10 21  5 22 47.0000000  0  7G01G04G13G17G20G23G28
  24548255.438 6  24548270.538 3 129001951.216 6 100521001.684 3        39.000 6
        22.000 3
  21107107.560 8  21107118.180 6 110918599.757 8  86430077.514 6        50.000 8
        40.000 6
  22748421.150 7  22748433.930 5 119543760.307 7  93150981.302 5        45.000 7
        30.000 5
  20232906.686 9  20232915.586 8 106324640.859 9  82850369.208 8        55.000 9
        50.000 8
  22216552.652 7  22216561.572 5 116748770.859 7  90973068.650 5        46.000 7
        34.000 5
  22417394.592 8  22417403.332 5 117804202.698 8  91795482.495 5        48.000 8
        35.000 5
  23325795.006 6  23325820.806 3 122577874.059 6  95515226.281 3        39.000 6
        21.000 3
 13 10 21  5 22 48.0000000  0  7G01G04G13G17G20G23G28
  24548726.838 6  24548742.078 3 129004429.701 6 100522932.965 3        38.000 6
        22.000 3
  21106834.180 8  21106844.800 6 110917161.967 8  86428957.164 6        50.000 8
        40.000 6
  22747919.110 7  22747931.450 4 119541120.332 7  93148924.189 4        45.000 7
        29.000 4
  20232878.406 9  20232887.306 8 106324492.751 9  82850253.793 8        55.000 9
        50.000 8
  22217100.532 7  22217108.892 5 116751648.504 7  90975310.967 5        47.000 7
        34.000 5
  22417241.972 8  22417251.272 6 117803400.590 8  91794857.480 6        49.000 8
        36.000 6
  23326409.066 6  23326435.566 3 122581103.859 6  95517742.970 3        39.000 6
        20.000 3
 13 10 21  5 22 49.0000000  0  7G01G04G13G17G20G23G28
  24549198.978 6  24549214.058 3 129006910.750 6 100524866.248 3        38.000 6
        22.000 3
  21106560.940 8  21106571.780 6 110915726.922 8  86427838.949 6        50.000 8
        40.000 6
  22747417.050 7  22747429.350 5 119538483.182 7  93146869.275 5        44.000 7
        30.000 5
  20232850.706 9  20232860.306 8 106324347.720 9  82850140.779 8        54.000 9
        50.000 8
  22217648.352 7  22217657.092 5 116754528.925 7  90977555.449 5        46.000 7
        34.000 5
  22417089.712 8  22417098.812 6 117802601.562 8  91794234.863 6        48.000 8
        36.000 6
  23327024.726 6  23327050.466 3 122584336.255 6  95520261.685 3        39.000 6
        21.000 3
 13 10 21  5 22 50.0000000  0  7G01G04G13G17G20G23G28
  24549670.098 6  24549685.398 3 129009387.898 6 100526796.493 3        39.000 6
        22.000 3
  21106287.080 8  21106297.780 6 110914288.161 8  86426717.839 6        50.000 8
        40.000 6
  22746914.650 7  22746926.810 5 119535842.459 7  93144811.568 5        44.000 7
        31.000 5
  20232822.266 8  20232831.246 8 106324199.323 8  82850025.154 8        53.000 8
        50.000 8
  22218195.492 7  22218204.892 5 116757405.639 7  90979797.048 5        46.000 7
        34.000 5
  22416937.372 8  22416946.032 6 117801799.142 8  91793609.604 6        48.000 8
        36.000 6
  23327639.286 6  23327665.306 3 122587564.854 6  95522777.440 3        39.000 6
        20.000 3
 13 10 21  5 22 51.0000000  0  7G01G04G13G17G20G23G28
  24550142.598 6  24550157.078 3 129011865.762 6 100528727.295 3        39.000 6
        22.000 3
  21106013.700 8  21106024.120 6 110912850.278 8  86425597.415 6        50.000 8
        40.000 6
  22746412.110 7  22746424.370 5 119533202.686 7  93142754.615 5        45.000 7
        30.000 5
  20232794.226 9  20232803.326 8 106324052.093 9  82849910.423 8        54.000 9
        50.000 8
  22218743.472 7  22218751.792 5 116760283.207 7  90982039.311 5        46.000 7
        34.000 5
  22416784.832 8  22416793.732 6 117800997.917 8  91792985.271 6        49.000 8
        36.000 6
  23328253.306 6  23328280.006 3 122590794.228 6  95525293.799 3        39.000 6
        19.000 3
 13 10 21  5 22 52.0000000  0  7G01G04G13G17G20G23G28
  24550614.318 6  24550628.838 3 129014344.442 6 100530658.752 3        39.000 6
        22.000 3
  21105740.080 8  21105751.120 6 110911413.404 8  86424477.771 6        50.000 8
        41.000 6
  22745909.790 7  22745922.230 5 119530564.033 7  93140698.528 5        44.000 7
        30.000 5
  20232766.886 9  20232775.946 8 106323906.223 9  82849796.758 8        54.000 9
        50.000 8
  22219291.432 7  22219299.492 5 116763161.832 7  90984282.393 5        47.000 7
        34.000 5
  22416632.472 8  22416641.332 6 117800198.051 8  91792362.003 6        49.000 8
        36.000 6
  23328868.766 6  23328894.646 3 122594024.538 6  95527810.880 3        39.000 6
        20.000 3
 13 10 21  5 22 53.0000000  0  7G01G04G13G17G20G23G28
  24551085.878 6  24551100.538 3 129016825.002 6 100532591.681 3        39.000 6
        22.000 3
  21105467.160 8  21105477.980 6 110909978.625 8  86423359.763 6        50.000 8
        40.000 6
  22745408.510 7  22745421.070 5 119527927.563 7  93138644.150 5        45.000 7
        30.000 5
  20232738.986 9  20232748.166 8 106323762.750 9  82849684.963 8        55.000 9
        50.000 8
  22219839.352 7  22219847.892 5 116766042.521 7  90986527.084 5        47.000 7
        33.000 5
  22416480.812 8  22416489.652 6 117799400.568 8  91791740.600 6        49.000 8
        36.000 6
  23329483.126 6  23329509.886 3 122597256.792 6  95530329.481 3        40.000 6
        19.000 3
 13 10 21  5 22 54.0000000  0  7G01G04G13G17G20G23G28
  24551557.218 6  24551572.398 3 129019303.769 6 100534523.173 3        39.000 6
        22.000 3
  21105193.940 8  21105204.380 6 110908542.206 8  86422240.477 6        49.000 8
        40.000 6
  22744905.890 7  22744918.890 4 119525289.559 7  93136588.567 4        44.000 7
        29.000 4
  20232711.886 9  20232721.386 8 106323617.969 9  82849572.144 8        55.000 9
        50.000 8
  22220387.392 7  22220395.812 5 116768921.566 7  90988770.498 5        46.000 7
        34.000 5
  22416328.732 8  22416337.432 6 117798601.774 8  91791118.165 6        49.000 8
        36.000 6
  23330098.226 6  23330124.526 3 122600487.299 6  95532846.720 3        40.000 6
        21.000 3
 13 10 21  5 22 55.0000000  0  7G01G04G13G17G20G23G28
  24552028.758 6  24552043.498 3 129021778.536 6 100536451.566 3        39.000 6
        21.000 3
  21104919.960 8  21104930.100 6 110907102.000 8  86421118.241 6        49.000 8
        40.000 6
  22744403.670 7  22744416.010 5 119522647.861 7  93134530.117 5        44.000 7
        30.000 5
  20232683.606 9  20232692.626 8 106323469.743 9  82849456.641 8        55.000 9
        50.000 8
  22220934.552 7  22220942.772 5 116771796.864 7  90991010.990 5        46.000 7
        34.000 5
  22416176.112 8  22416184.552 6 117797799.545 8  91790493.056 6        48.000 8
        36.000 6
  23330712.546 6  23330738.646 3 122603713.949 6  95535360.949 3        40.000 6
        20.000 3
 13 10 21  5 22 56.0000000  0  7G01G04G13G17G20G23G28
  24552500.578 6  24552515.438 3 129024258.878 6 100538384.283 3        39.000 6
        22.000 3
  21104646.980 8  21104657.240 6 110905667.572 8  86420000.513 6        48.000 8
        40.000 6
  22743902.010 7  22743914.370 4 119520012.048 7  93132476.247 4        44.000 7
        29.000 4
  20232656.666 9  20232665.886 8 106323327.602 9  82849345.886 8        55.000 9
        50.000 8
  22221482.572 7  22221490.852 5 116774677.913 7  90993255.953 5        47.000 7
        34.000 5
  22416024.532 8  22416033.172 6 117797003.407 8  91789872.685 6        48.000 8
        36.000 6
  23331327.106 6  23331353.126 3 122606946.234 6  95537879.583 3        40.000 6
        20.000 3
 13 10 21  5 22 57.0000000  0  7G01G04G13G17G20G23G28
  24552971.418 6  24552987.278 3 129026737.705 6 100540315.832 3        38.000 6
        22.000 3
  21104373.420 8  21104383.920 6 110904231.736 8  86418881.678 6        48.000 8
        39.000 6
  22743399.990 7  22743412.530 5 119517374.900 7  93130421.337 5        44.000 7
        30.000 5
  20232629.346 9  20232638.466 8 106323184.378 9  82849234.280 8        55.000 9
        50.000 8
  22222030.852 7  22222039.192 5 116777557.597 7  90995499.868 5        47.000 7
        34.000 5
  22415872.932 8  22415881.152 6 117796206.187 8  91789251.480 6        48.000 8
        36.000 6
  23331942.446 6  23331968.166 3 122610177.035 6  95540397.049 3        39.000 6
        21.000 3
 13 10 21  5 22 58.0000000  0  7G01G04G13G17G20G23G28
  24553443.498 6  24553459.098 3 129029216.980 6 100542247.733 3        38.000 6
        21.000 3
  21104100.660 8  21104111.040 6 110902796.623 8  86417763.412 6        49.000 8
        40.000 6
  22742898.310 7  22742910.710 5 119514738.615 7  93128367.096 5        44.000 7
        30.000 5
  20232602.286 9  20232611.486 8 106323042.230 9  82849123.519 8        55.000 9
        50.000 8
  22222578.612 7  22222587.572 5 116780437.997 7  90997744.342 5        47.000 7
        34.000 5
  22415721.672 8  22415729.932 6 117795410.044 8  91788631.111 6        48.000 8
        36.000 6
  23332557.566 6  23332583.266 3 122613408.449 6  95542915.007 3        40.000 6
        20.000 3
 13 10 21  5 22 59.0000000  0  7G01G04G13G17G20G23G28
  24553915.838 6  24553930.638 3 129031696.682 6 100544179.974 3        39.000 6
        22.000 3
  21103827.540 8  21103838.060 6 110901362.085 8  86416645.596 6        49.000 8
        40.000 6
  22742396.610 7  22742409.050 5 119512102.975 7  93126313.360 5        44.000 7
        30.000 5
  20232575.186 9  20232584.386 8 106322900.951 9  82849013.425 8        55.000 9
        50.000 8
  22223127.212 7  22223135.452 5 116783318.960 7  90999989.242 5        47.000 7
        34.000 5
  22415569.912 8  22415578.452 5 117794614.776 8  91788011.423 5        48.000 8
        35.000 5
  23333172.126 6  23333198.326 3 122616640.332 6  95545433.304 3        39.000 6
        20.000 3
 13 10 21  5 23  0.0000000  0  7G01G04G13G17G20G23G28
  24554387.338 6  24554402.878 3 129034174.820 6 100546110.995 3        38.000 6
        21.000 3
  21103554.420 8  21103564.720 6 110899926.149 8  86415526.685 6        49.000 8
        40.000 6
  22741894.670 7  22741907.250 5 119509466.038 7  93124258.607 5        44.000 7
        30.000 5
  20232548.386 9  20232557.386 8 106322758.600 9  82848902.508 8        55.000 9
        50.000 8
  22223674.672 7  22223683.512 5 116786198.538 7  91002233.071 5        47.000 7
        33.000 5
  22415418.452 8  22415426.972 5 117793818.446 8  91787390.909 5        48.000 8
        35.000 5
  23333787.046 6  23333812.846 3 122619870.671 6  95547950.406 3        39.000 6
        21.000 3
 13 10 21  5 23  1.0000000  0  7G01G04G13G17G20G23G28
  24554859.198 6  24554874.178 3 129036652.222 6 100548041.446 3        38.000 6
        22.000 3
  21103281.080 8  21103290.960 6 110898489.680 8  86414407.359 6        49.000 8
        40.000 6
  22741392.990 7  22741405.470 5 119506828.675 7  93122203.536 5        44.000 7
        30.000 5
  20232521.186 9  20232530.486 8 106322616.052 9  82848791.430 8        55.000 9
        50.000 8
  22224223.172 7  22224231.212 5 116789077.583 7  91004476.487 5        47.000 7
        33.000 5
  22415267.192 8  22415275.412 5 117793021.909 8  91786770.232 5        48.000 8
        34.000 5
  23334401.626 6  23334428.226 3 122623100.400 6  95550467.050 3        39.000 6
        20.000 3
 13 10 21  5 23  2.0000000  0  7G01G04G13G17G20G23G28
  24555331.238 6  24555346.138 3 129039133.684 6 100549975.067 3        38.000 6
        22.000 3
  21103008.500 8  21103018.720 6 110897057.438 8  86413291.330 6        49.000 8
        40.000 6
  22740892.070 7  22740904.470 5 119504195.613 7  93120151.803 5        44.000 7
        30.000 5
  20232494.546 9  20232504.126 8 106322478.033 9  82848683.887 8        55.000 9
        50.000 8
  22224771.172 7  22224779.832 5 116791960.848 7  91006723.187 5        47.000 7
        33.000 5
  22415116.492 8  22415124.732 5 117792229.904 8  91786153.096 5        48.000 8
        35.000 5
  23335017.426 6  23335042.986 3 122626334.212 6  95552986.860 3        39.000 6
        21.000 3
 13 10 21  5 23  3.0000000  0  7G01G04G13G17G20G23G28
  24555802.518 6  24555817.798 3 129041611.491 6 100551905.818 3        38.000 6
        22.000 3
  21102735.620 8  21102745.740 6 110895621.792 8  86412172.653 6        49.000 8
        41.000 6
  22740390.010 7  22740402.710 5 119501559.267 7  93118097.526 5        44.000 7
        30.000 5
  20232468.146 9  20232477.426 8 106322336.946 9  82848573.945 8        55.000 9
        50.000 8
  22225319.492 7  22225327.932 5 116794840.717 7  91008967.233 5        47.000 7
        34.000 5
  22414965.232 8  22414973.452 5 117791434.848 8  91785533.579 5        48.000 8
        35.000 5
  23335631.666 6  23335658.346 3 122629564.558 6  95555503.977 3        39.000 6
        19.000 3
 13 10 21  5 23  4.0000000  0  7G01G04G13G17G20G23G28
  24556274.478 6  24556289.158 3 129044091.277 6 100553838.133 3        38.000 6
        22.000 3
  21102462.600 8  21102473.040 6 110894188.284 8  86411055.634 6        50.000 8
        41.000 6
  22739888.810 7  22739901.630 5 119498925.138 7  93116044.964 5        44.000 7
        30.000 5
  20232442.006 9  20232451.126 8 106322198.334 9  82848465.940 8        55.000 9
        50.000 8
  22225867.792 7  22225876.612 5 116797722.718 7  91011212.948 5        46.000 7
        35.000 5
  22414814.072 8  22414822.492 5 117790642.234 8  91784915.955 5        48.000 8
        35.000 5
  23336247.226 6  23336273.366 3 122632796.918 6  95558022.655 3        39.000 6
        21.000 3
 13 10 21  5 23  5.0000000  0  7G01G04G13G17G20G23G28
  24556745.398 6  24556761.078 3 129046569.856 6 100555769.479 3        38.000 6
        21.000 3
  21102189.660 8  21102199.960 6 110892753.698 8  86409937.771 6        49.000 8
        41.000 6
  22739387.670 7  22739400.070 5 119496290.061 7  93113991.664 5        44.000 7
        30.000 5
  20232415.206 9  20232424.166 8 106322058.965 9  82848357.338 8        54.000 9
        50.000 8
  22226416.472 7  22226425.272 5 116800603.668 7  91013457.850 5        47.000 7
        34.000 5
  22414662.912 8  22414671.432 5 117789848.897 8  91784297.770 5        48.000 8
        35.000 5
  23336861.646 6  23336888.366 3 122636028.076 6  95560540.412 3        39.000 6
        21.000 3
 13 10 21  5 23  6.0000000  0  7G01G04G13G17G20G23G28
  24557217.758 6  24557233.218 3 129049050.057 6 100557702.101 3        38.000 6
        22.000 3
  21101917.200 8  21101927.420 6 110891321.034 8  86408821.413 6        49.000 8
        41.000 6
  22738886.510 7  22738899.230 5 119493657.002 7  93111939.937 5        44.000 7
        31.000 5
  20232389.026 9  20232398.346 8 106321921.838 9  82848250.488 8        54.000 9
        50.000 8
  22226964.692 7  22226973.192 5 116803486.530 7  91015704.236 5        47.000 7
        34.000 5
  22414512.532 8  22414520.872 5 117789057.796 8  91783681.332 5        48.000 8
        35.000 5
  23337476.446 6  23337503.486 3 122639261.068 6  95563059.574 3        39.000 6
        20.000 3
 13 10 21  5 23  7.0000000  0  7G01G04G13G17G20G23G28
  24557689.638 6  24557704.358 3 129051528.479 6 100559633.343 3        38.000 6
        22.000 3
  21101643.920 8  21101654.340 6 110889886.693 8  86407703.749 6        49.000 8
        41.000 6
  22738385.110 7  22738397.650 5 119491022.377 7  93109886.993 5        44.000 7
        31.000 5
  20232362.646 9  20232371.666 8 106321783.376 9  82848142.597 8        54.000 9
        50.000 8
  22227512.972 7  22227521.752 5 116806367.737 7  91017949.335 5        47.000 7
        34.000 5
  22414362.152 8  22414370.272 5 117788265.361 8  91783063.856 5        48.000 8
        35.000 5
  23338091.746 6  23338118.106 3 122642492.266 6  95565577.359 3        40.000 6
        20.000 3
 13 10 21  5 23  8.0000000  0  7G01G04G13G17G20G23G28
  24558161.458 6  24558176.298 3 129054006.078 6 100561563.938 3        38.000 6
        21.000 3
  21101371.020 8  21101381.360 6 110888451.737 8  86406585.603 6        49.000 8
        41.000 6
  22737883.830 7  22737896.150 5 119488387.210 7  93107833.625 5        44.000 7
        30.000 5
  20232336.446 9  20232345.366 8 106321644.608 9  82848034.463 8        54.000 9
        50.000 8
  22228060.972 7  22228069.452 5 116809248.296 7  91020193.919 5        47.000 7
        34.000 5
  22414211.332 8  22414219.652 6 117787472.620 8  91782446.138 6        49.000 8
        36.000 6
  23338706.766 6  23338732.766 3 122645722.742 6  95568094.574 3        40.000 6
        21.000 3
 13 10 21  5 23  9.0000000  0  7G01G04G13G17G20G23G28
  24558633.518 6  24558648.138 3 129056487.104 6 100563497.192 3        38.000 6
        21.000 3
  21101098.580 8  21101108.840 6 110887020.394 8  86405470.273 6        49.000 8
        40.000 6
  22737382.970 7  22737395.590 5 119485755.785 7  93105783.176 5        44.000 7
        30.000 5
  20232310.606 9  20232319.946 8 106321509.788 9  82847929.408 8        54.000 9
        50.000 8
  22228610.152 7  22228618.712 5 116812132.503 7  91022441.354 5        47.000 7
        34.000 5
  22414060.992 8  22414069.052 6 117786683.844 8  91781831.506 6        49.000 8
        36.000 6
  23339321.466 6  23339348.366 3 122648956.740 6  95570614.520 3        39.000 6
        21.000 3
 13 10 21  5 23 10.0000000  0  7G01G04G13G17G20G23G28
  24559104.758 6  24559119.998 3 129058966.942 6 100565429.538 3        38.000 6
        22.000 3
  21100825.880 8  21100836.280 6 110885588.027 8  86404354.147 6        49.000 8
        40.000 6
  22736882.170 7  22736894.930 5 119483123.425 7  93103731.997 5        44.000 7
        30.000 5
  20232284.806 9  20232293.986 8 106321374.279 9  82847823.819 8        54.000 9
        50.000 8
  22229158.492 7  22229167.292 5 116815015.676 7  91024687.980 5        46.000 7
        33.000 5
  22413910.912 8  22413919.032 6 117785894.359 8  91781216.331 6        49.000 8
        36.000 6
  23339937.106 6  23339963.786 3 122652189.591 6  95573133.589 3        39.000 6
        20.000 3
 13 10 21  5 23 11.0000000  0  7G01G04G13G17G20G23G28
  24559577.278 6  24559591.858 3 129061446.617 6 100567361.756 3        38.000 6
        22.000 3
  21100553.420 8  21100563.840 6 110884155.693 8  86403238.045 6        49.000 8
        40.000 6
  22736381.090 7  22736393.850 5 119480491.188 7  93101680.909 5        44.000 7
        31.000 5
  20232259.286 9  20232268.286 8 106321239.125 9  82847718.504 8        55.000 9
        50.000 8
  22229707.052 7  22229715.932 5 116817898.870 7  91026934.624 5        47.000 7
        33.000 5
  22413760.492 8  22413769.052 6 117785105.224 8  91780601.420 6        49.000 8
        36.000 6
  23340552.046 6  23340578.986 3 122655422.386 6  95575652.618 3        39.000 6
        20.000 3
 13 10 21  5 23 12.0000000  0  7G01G04G13G17G20G23G28
  24560049.338 6  24560063.558 3 129063925.081 6 100569293.023 3        38.000 6
        21.000 3
  21100280.520 8  21100291.040 6 110882722.317 8  86402121.126 6        50.000 8
        41.000 6
  22735880.010 7  22735892.670 5 119477858.032 7  93099629.111 5        44.000 7
        30.000 5
  20232233.426 9  20232242.186 8 106321103.245 9  82847612.621 8        55.000 9
        50.000 8
  22230255.292 7  22230264.492 5 116820781.065 7  91029180.489 5        46.000 7
        33.000 5
  22413610.372 8  22413618.952 6 117784315.395 8  91779985.977 6        50.000 8
        36.000 6
  23341167.986 6  23341193.686 3 122658653.999 6  95578170.727 3        39.000 6
        20.000 3
 13 10 21  5 23 13.0000000  0  7G01G04G13G17G20G23G28
  24560520.518 6  24560535.478 3 129066404.557 6 100571225.079 3        37.000 6
        21.000 3
  21100008.140 8  21100018.220 6 110881290.193 8  86401005.190 6        50.000 8
        41.000 6
  22735379.530 7  22735391.630 5 119475226.210 7  93097578.349 5        44.000 7
        31.000 5
  20232207.606 9  20232216.466 8 106320968.961 9  82847507.986 8        55.000 9
        50.000 8
  22230804.152 7  22230813.472 5 116823664.521 7  91031427.334 5        46.000 7
        33.000 5
  22413460.332 8  22413468.892 6 117783527.139 8  91779371.752 6        49.000 8
        36.000 6
  23341782.126 6  23341809.066 3 122661886.787 6  95580689.745 3        39.000 6
        20.000 3
 13 10 21  5 23 14.0000000  0  7G01G04G13G17G20G23G28
  24560991.778 6  24561006.898 3 129068883.152 6 100573156.450 3        38.000 6
        21.000 3
  21099735.200 8  21099745.680 6 110879857.290 8  86399888.642 6        50.000 8
        41.000 6
  22734878.470 7  22734890.930 5 119472593.753 7  93095527.094 5        44.000 7
        31.000 5
  20232182.326 9  20232191.006 8 106320834.229 9  82847403.003 8        55.000 9
        50.000 8
  22231353.032 7  22231362.092 5 116826547.187 7  91033673.560 5        46.000 7
        34.000 5
  22413310.232 8  22413318.612 5 117782738.464 8  91778757.201 5        49.000 8
        35.000 5
  23342397.526 6  23342423.846 3 122665118.652 6  95583208.057 3        40.000 6
        19.000 3
 13 10 21  5 23 15.0000000  0  7G01G04G13G17G20G23G28
  24561464.058 6  24561479.658 3 129071363.602 6 100575089.287 3        37.000 6
        21.000 3
  21099463.200 8  21099473.800 6 110878426.443 8  86398773.698 6        50.000 8
        40.000 6
  22734377.730 7  22734390.250 5 119469963.468 7  93093477.528 5        45.000 7
        30.000 5
  20232156.826 9  20232165.626 8 106320701.887 9  82847299.881 8        55.000 9
        50.000 8
  22231901.732 7  22231910.832 5 116829431.915 7  91035921.400 5        46.000 7
        34.000 5
  22413160.792 8  22413169.072 5 117781952.158 8  91778144.498 5        48.000 8
        35.000 5
  23343013.166 6  23343039.046 3 122668352.548 6  95585727.938 3        39.000 6
        20.000 3
 13 10 21  5 23 16.0000000  0  7G01G04G13G17G20G23G28
  24561936.738 6  24561951.358 3 129073843.979 6 100577022.056 3        38.000 6
        21.000 3
  21099190.620 8  21099201.200 6 110876995.720 8  86397658.856 6        50.000 8
        41.000 6
  22733877.390 7  22733890.070 5 119467333.373 7  93091428.105 5        44.000 7
        30.000 5
  20232131.786 9  20232140.846 8 106320569.964 9  82847197.082 8        54.000 9
        50.000 8
  22232450.832 7  22232459.712 5 116832316.745 7  91038169.318 5        46.000 7
        34.000 5
  22413011.012 8  22413019.552 5 117781166.288 8  91777532.138 5        49.000 8
        35.000 5
  23343628.106 6  23343654.786 3 122671586.379 6  95588247.757 3        39.000 6
        19.000 3
 13 10 21  5 23 17.0000000  0  7G01G04G13G17G20G23G28
  24562408.058 6  24562422.918 3 129076321.605 6 100578952.670 3        39.000 6
        22.000 3
  21098918.040 8  21098928.620 6 110875562.452 8  86396542.019 6        51.000 8
        40.000 6
  22733376.670 7  22733389.170 5 119464700.834 7  93089376.786 5        45.000 7
        30.000 5
  20232106.426 9  20232115.126 8 106320435.837 9  82847092.567 8        54.000 9
        50.000 8
  22232999.472 7  22233008.532 5 116835199.051 7  91040415.269 5        46.000 7
        33.000 5
  22412861.252 8  22412869.572 5 117780378.207 8  91776918.048 5        49.000 8
        35.000 5
  23344243.266 6  23344269.606 3 122674817.590 6  95590765.540 3        39.000 6
        20.000 3
 13 10 21  5 23 18.0000000  0  7G01G04G13G17G20G23G28
  24562880.458 6  24562894.898 3 129078801.120 6 100580884.763 3        39.000 6
        22.000 3
  21098645.880 8  21098656.180 6 110874131.245 8  86395426.797 6        51.000 8
        40.000 6
  22732876.130 7  22732888.690 5 119462070.455 7  93087327.154 5        45.000 7
        31.000 5
  20232081.346 9  20232090.206 8 106320304.107 9  82846989.922 8        54.000 9
        50.000 8
  22233548.292 7  22233557.052 5 116838083.435 7  91042662.836 5        46.000 7
        33.000 5
  22412711.592 8  22412719.912 5 117779592.531 8  91776305.836 5        49.000 8
        35.000 5
  23344858.126 6  23344884.746 3 122678050.732 6  95593284.831 3        39.000 6
        20.000 3
 13 10 21  5 23 19.0000000  0  7G01G04G13G17G20G23G28
  24563351.838 6  24563366.758 3 129081282.750 6 100582818.505 3        38.000 6
        22.000 3
  21098373.720 8  21098383.940 6 110872702.372 8  86394313.391 6        50.000 8
        40.000 6
  22732375.630 7  22732388.650 5 119459442.499 7  93085279.402 5        44.000 7
        31.000 5
  20232056.766 9  20232065.766 8 106320175.025 9  82846889.337 8        54.000 9
        50.000 8
  22234097.672 7  22234106.432 5 116840970.128 7  91044912.206 5        46.000 7
        34.000 5
  22412562.292 8  22412571.092 5 117778809.492 8  91775695.679 5        49.000 8
        35.000 5
  23345473.906 6  23345500.466 3 122681286.126 6  95595805.892 3        39.000 6
        19.000 3
 13 10 21  5 23 20.0000000  0  7G01G04G13G17G20G23G28
  24563823.838 6  24563838.338 3 129083760.728 6 100584749.391 3        39.000 6
        22.000 3
  21098101.140 8  21098111.720 6 110871269.994 8  86393197.255 6        50.000 8
        40.000 6
  22731875.310 7  22731887.910 5 119456811.187 7  93083229.038 5        44.000 7
        31.000 5
  20232031.626 9  20232040.326 8 106320042.776 9  82846786.288 8        54.000 9
        50.000 8
  22234646.632 7  22234654.912 5 116843853.340 7  91047158.869 5        46.000 7
        34.000 5
  22412412.872 8  22412421.272 5 117778023.296 8  91775083.061 5        49.000 8
        35.000 5
  23346088.486 6  23346115.606 3 122684517.904 6  95598324.133 3        39.000 6
        19.000 3
 13 10 21  5 23 21.0000000  0  7G01G04G13G17G20G23G28
  24564295.998 6  24564310.818 3 129086241.743 6 100586682.654 3        39.000 6
        22.000 3
  21097829.140 8  21097839.860 6 110869840.835 8  86392083.634 6        49.000 8
        40.000 6
  22731375.170 7  22731387.730 5 119454183.170 7  93081181.238 5        44.000 7
        31.000 5
  20232007.066 9  20232015.966 8 106319914.086 9  82846686.012 8        54.000 9
        50.000 8
  22235195.512 7  22235204.392 5 116846739.779 7  91049408.046 5        47.000 7
        33.000 5
  22412263.912 8  22412272.232 5 117777240.640 8  91774473.202 5        49.000 8
        35.000 5
  23346704.566 6  23346731.186 3 122687752.804 6  95600844.787 3        39.000 6
        19.000 3
 13 10 21  5 23 22.0000000  0  7G01G04G13G17G20G23G28
  24564767.018 6  24564782.718 3 129088720.832 6 100588614.405 3        38.000 6
        22.000 3
  21097557.140 8  21097567.440 6 110868409.988 8  86390968.685 6        50.000 8
        40.000 6
  22730874.870 7  22730887.370 5 119451553.587 7  93079132.221 5        45.000 7
        31.000 5
  20231982.486 9  20231991.426 8 106319784.016 9  82846584.657 8        55.000 9
        50.000 8
  22235744.212 7  22235753.372 5 116849624.515 7  91051655.894 5        47.000 7
        34.000 5
  22412114.952 8  22412123.452 5 117776456.634 8  91773862.287 5        49.000 8
        35.000 5
  23347319.706 6  23347346.486 3 122690985.870 6  95603364.024 3        39.000 6
        19.000 3
 13 10 21  5 23 23.0000000  0  7G01G04G13G17G20G23G28
  24565238.778 6  24565254.178 3 129091201.506 6 100590547.381 3        39.000 6
        22.000 3
  21097284.740 8  21097295.420 6 110866980.884 8  86389855.099 6        50.000 8
        41.000 6
  22730374.590 7  22730387.390 5 119448925.796 7  93077084.600 5        45.000 7
        32.000 5
  20231958.006 9  20231967.146 8 106319656.008 9  82846484.904 8        54.000 9
        50.000 8
  22236293.972 7  22236302.332 5 116852510.998 7  91053905.093 5        47.000 7
        33.000 5
  22411966.132 8  22411974.332 5 117775674.677 8  91773252.972 5        49.000 8
        35.000 5
  23347935.106 6  23347962.166 3 122694220.584 6  95605884.511 3        39.000 6
        19.000 3
 13 10 21  5 23 24.0000000  0  7G01G04G13G17G20G23G28
  24565710.818 6  24565725.978 3 129093679.597 6 100592478.349 3        38.000 6
        21.000 3
  21097012.660 8  21097023.400 6 110865549.341 8  86388739.614 6        50.000 8
        41.000 6
  22729874.430 7  22729887.110 5 119446295.711 7  93075035.187 5        45.000 7
        31.000 5
  20231933.286 9  20231942.006 8 106319525.910 9  82846383.535 8        54.000 9
        50.000 8
  22236842.792 7  22236851.412 5 116855395.030 7  91056152.391 5        47.000 7
        34.000 5
  22411816.912 8  22411825.232 6 117774890.620 8  91772642.025 6        49.000 8
        36.000 6
  23348550.726 6  23348577.566 3 122697452.741 6  95608403.027 3        39.000 6
        19.000 3
 13 10 21  5 23 25.0000000  0  7G01G04G13G17G20G23G28
  24566183.338 6  24566198.698 3 129096161.689 6 100594412.459 3        39.000 6
        22.000 3
  21096741.100 8  21096751.780 6 110864122.013 8  86387627.410 6        50.000 8
        41.000 6
  22729374.630 7  22729387.310 5 119443669.920 7  93072989.124 5        45.000 7
        31.000 5
  20231909.326 9  20231918.206 8 106319400.330 9  82846285.677 8        54.000 9
        50.000 8
  22237392.112 7  22237400.912 5 116858283.302 7  91058402.995 5        46.000 7
        33.000 5
  22411668.072 8  22411677.152 6 117774111.125 8  91772034.628 6        49.000 8
        36.000 6
  23349166.286 6  23349193.086 3 122700689.028 6  95610924.769 3        39.000 6
        19.000 3
 13 10 21  5 23 26.0000000  0  7G01G04G13G17G20G23G28
  24566655.118 6  24566670.278 3 129098640.066 6 100596343.670 3        38.000 6
        22.000 3
  21096468.640 8  21096479.300 6 110862691.162 8  86386512.469 6        50.000 8
        40.000 6
  22728874.470 7  22728886.850 5 119441040.731 7  93070940.411 5        45.000 7
        31.000 5
  20231884.866 9  20231893.746 8 106319271.576 9  82846185.349 8        54.000 9
        50.000 8
  22237941.492 7  22237949.852 5 116861168.049 7  91060650.849 5        47.000 7
        34.000 5
  22411519.352 8  22411528.112 6 117773328.429 8  91771424.740 6        49.000 8
        36.000 6
  23349781.206 6  23349808.666 3 122703921.647 6  95613443.685 3        38.000 6
        20.000 3
 13 10 21  5 23 27.0000000  0  7G01G04G13G17G20G23G28
  24567127.098 6  24567142.338 3 129101120.921 6 100598276.802 3        39.000 6
        22.000 3
  21096197.100 8  21096207.860 6 110861262.998 8  86385399.614 6        49.000 8
        40.000 6
  22728374.170 7  22728387.110 5 119438414.303 7  93068893.859 5        45.000 7
        32.000 5
  20231860.686 9  20231869.906 8 106319145.808 9  82846087.347 8        54.000 9
        50.000 8
  22238490.872 7  22238498.992 5 116864055.470 7  91062900.794 5        46.000 7
        34.000 5
  22411371.272 8  22411379.552 6 117772548.713 8  91770817.167 6        49.000 8
        36.000 6
  23350397.046 6  23350424.566 3 122707156.873 6  95615964.621 3        39.000 6
        19.000 3
 13 10 21  5 23 28.0000000  0  7G01G04G13G17G20G23G28
  24567599.218 6  24567614.618 3 129103601.537 6 100600209.762 3        38.000 6
        22.000 3
  21095925.060 8  21095935.980 6 110859834.753 8  86384286.702 6        49.000 8
        41.000 6
  22727874.510 7  22727887.190 5 119435787.894 7  93066847.313 5        45.000 7
        31.000 5
  20231837.006 9  20231846.166 8 106319020.283 9  82845989.540 8        54.000 9
        50.000 8
  22239039.672 7  22239048.572 5 116866942.805 7  91065150.663 5        46.000 7
        34.000 5
  22411222.792 8  22411230.932 6 117771769.255 8  91770209.801 6        49.000 8
        36.000 6
  23351013.286 6  23351040.186 3 122710391.886 6  95618485.355 3        39.000 6
        19.000 3
 13 10 21  5 23 29.0000000  0  7G01G04G13G17G20G23G28
  24568071.018 6  24568086.198 3 129106081.270 6 100602142.017 3        38.000 6
        22.000 3
  21095653.120 8  21095664.240 6 110858405.791 8  86383173.227 6        49.000 8
        40.000 6
  22727374.810 7  22727387.630 5 119433160.918 7  93064800.330 5        45.000 7
        31.000 5
  20231812.706 9  20231821.646 8 106318894.378 9  82845891.432 8        54.000 9
        50.000 8
  22239589.392 7  22239597.912 5 116869829.472 7  91067400.016 5        46.000 7
        34.000 5
  22411074.492 8  22411082.532 6 117770989.437 8  91769602.160 6        49.000 8
        36.000 6
  23351628.586 6  23351655.386 3 122713626.066 6  95621005.481 3        39.000 6
        19.000 3
 13 10 21  5 23 30.0000000  0  7G01G04G13G17G20G23G28
  24568542.618 6  24568558.298 3 129108561.203 6 100604074.416 3        38.000 6
        23.000 3
  21095381.220 8  21095391.920 6 110856977.283 8  86382060.102 6        49.000 8
        40.000 6
  22726875.010 7  22726887.830 5 119430534.449 7  93062753.739 5        45.000 7
        31.000 5
  20231789.366 9  20231798.266 8 106318769.263 9  82845793.940 8        54.000 9
        50.000 8
  22240137.872 7  22240147.212 5 116872716.562 7  91069649.695 5        46.000 7
        34.000 5
  22410926.252 8  22410934.372 6 117770210.375 8  91768995.102 6        49.000 8
        36.000 6
  23352244.586 6  23352271.606 3 122716860.619 6  95623525.859 3        38.000 6
        19.000 3
 13 10 21  5 23 31.0000000  0  7G01G04G13G17G20G23G28
  24569014.358 6  24569030.098 3 129111041.982 6 100606007.488 3        37.000 6
        22.000 3
  21095109.680 8  21095120.380 6 110855549.763 8  86380947.757 6        49.000 8
        41.000 6
  22726375.070 7  22726388.150 5 119427909.083 7  93060708.010 5        45.000 7
        32.000 5
  20231765.786 9  20231774.586 8 106318645.452 9  82845697.456 8        54.000 9
        50.000 8
  22240687.692 7  22240696.832 5 116875604.638 7  91071900.137 5        46.000 7
        34.000 5
  22410778.052 8  22410786.292 6 117769432.640 8  91768389.076 6        49.000 8
        36.000 6
  23352859.066 6  23352886.906 3 122720096.042 6  95626046.905 3        38.000 6
        20.000 3
 13 10 21  5 23 32.0000000  0  7G01G04G13G17G20G23G28
  24569485.538 6  24569501.898 3 129113519.778 6 100607938.249 3        38.000 6
        21.000 3
  21094837.720 8  21094848.180 6 110854119.455 8  86379833.227 6        49.000 8
        41.000 6
  22725875.210 7  22725887.990 5 119425281.055 7  93058660.204 5        45.000 7
        31.000 5
  20231741.606 9  20231750.586 8 106318519.200 9  82845599.080 8        55.000 9
        50.000 8
  22241237.852 7  22241246.052 5 116878489.938 7  91074148.422 5        47.000 7
        34.000 5
  22410629.872 8  22410638.132 5 117768652.462 8  91767781.143 5        49.000 8
        35.000 5
  23353474.846 6  23353502.026 3 122723328.564 6  95628565.712 3        38.000 6
        20.000 3
 13 10 21  5 23 33.0000000  0  7G01G04G13G17G20G23G28
  24569958.118 6  24569973.878 3 129116001.400 6 100609871.983 3        37.000 6
        20.000 3
  21094566.200 8  21094576.600 6 110852693.073 8  86378721.763 6        49.000 8
        40.000 6
  22725376.190 7  22725388.630 5 119422657.027 7  93056615.511 5        45.000 7
        31.000 5
  20231718.186 9  20231727.346 8 106318397.183 9  82845504.004 8        55.000 9
        50.000 8
  22241786.932 7  22241795.452 5 116881379.157 7  91076399.763 5        47.000 7
        34.000 5
  22410481.872 8  22410490.372 6 117767876.519 8  91767176.519 6        50.000 8
        36.000 6
  23354090.626 6  23354117.826 3 122726564.880 6  95631087.466 3        38.000 6
        20.000 3
 13 10 21  5 23 34.0000000  0  7G01G04G13G17G20G23G28
  24570430.698 6  24570445.678 3 129118483.887 6 100611806.386 3        37.000 6
        19.000 3
  21094294.860 8  21094305.580 6 110851267.900 8  86377611.240 6        49.000 8
        41.000 6
  22724877.030 7  22724889.830 5 119420034.320 7  93054571.856 5        45.000 7
        32.000 5
  20231695.246 9  20231704.906 8 106318276.693 9  82845410.113 8        55.000 9
        50.000 8
  22242336.992 7  22242345.692 5 116884269.581 7  91078652.050 5        47.000 7
        34.000 5
  22410334.612 8  22410342.932 5 117767102.114 8  91766573.086 5        49.000 8
        35.000 5
  23354706.446 6  23354733.826 3 122729802.329 6  95633610.106 3        38.000 6
        19.000 3
 13 10 21  5 23 35.0000000  0  7G01G04G13G17G20G23G28
  24570902.578 6  24570917.698 3 129120962.669 6 100613737.912 3        37.000 6
        21.000 3
  21094022.920 8  21094033.620 6 110849839.174 8  86376497.953 6        50.000 8
        41.000 6
  22724377.030 7  22724389.390 5 119417408.143 7  93052525.498 5        45.000 7
        31.000 5
  20231671.646 9  20231680.726 8 106318152.963 9  82845313.702 8        54.000 9
        50.000 8
  22242886.352 7  22242895.472 5 116887156.443 7  91080901.546 5        47.000 7
        34.000 5
  22410186.612 8  22410195.172 6 117766324.473 8  91765967.138 6        49.000 8
        36.000 6
  23355322.526 6  23355349.306 3 122733036.060 6  95636129.851 3        38.000 6
        18.000 3
 13 10 21  5 23 36.0000000  0  7G01G04G13G17G20G23G28
  24571374.758 6  24571389.418 3 129123443.613 6 100615671.107 3        37.000 6
        21.000 3
  21093751.440 8  21093762.120 6 110848412.721 8  86375386.431 6        50.000 8
        41.000 6
  22723877.650 7  22723890.710 5 119414784.395 7  93050481.021 5        45.000 7
        32.000 5
  20231648.666 9  20231657.926 8 106318031.874 9  82845219.347 8        54.000 9
        50.000 8
  22243436.292 7  22243445.452 5 116890045.625 7  91083152.859 5        47.000 7
        34.000 5
  22410039.152 8  22410047.412 5 117765549.448 8  91765363.222 5        49.000 8
        35.000 5
  23355938.066 6  23355965.346 3 122736272.024 6  95638651.363 3        38.000 6
        18.000 3
 13 10 21  5 23 37.0000000  0  7G01G04G13G17G20G23G28
  24571846.418 6  24571861.758 3 129125924.413 6 100617604.200 3        37.000 6
        21.000 3
  21093480.120 8  21093490.600 6 110846986.323 8  86374274.954 6        50.000 8
        41.000 6
  22723378.570 7  22723391.430 5 119412160.753 7  93048436.637 5        45.000 7
        32.000 5
  20231625.726 9  20231635.426 8 106317911.137 9  82845125.264 8        54.000 9
        50.000 8
  22243986.152 7  22243994.912 5 116892934.822 7  91085404.181 5        47.000 7
        34.000 5
  22409891.632 8  22409900.192 5 117764774.811 8  91764759.611 5        49.000 8
        35.000 5
  23356553.746 6  23356581.066 3 122739507.888 6  95641172.775 3        37.000 6
        18.000 3
 13 10 21  5 23 38.0000000  0  7G01G04G13G17G20G23G28
  24572317.718 6  24572333.838 3 129128404.230 6 100619536.519 3        37.000 6
        21.000 3
  21093208.440 8  21093219.260 6 110845559.179 8  86373162.892 6        50.000 8
        41.000 6
  22722878.790 7  22722891.890 5 119409536.504 7  93046391.774 5        45.000 7
        31.000 5
  20231602.766 9  20231611.666 8 106317789.998 9  82845030.876 8        54.000 9
        50.000 8
  22244535.692 7  22244544.432 5 116895823.273 7  91087654.923 5        47.000 7
        35.000 5
  22409744.272 8  22409752.932 5 117763999.761 8  91764155.685 5        49.000 8
        35.000 5
  23357169.246 6  23357197.186 3 122742742.901 6  95643693.548 3        38.000 6
        19.000 3
 13 10 21  5 23 39.0000000  0  7G01G04G13G17G20G23G28
  24572790.938 6  24572805.518 3 129130883.311 6 100621468.263 3        36.000 6
        21.000 3
  21092937.180 8  21092947.580 6 110844131.435 8  86372050.373 6        50.000 8
        41.000 6
  22722379.350 7  22722392.530 5 119406911.769 7  93044346.542 5        45.000 7
        31.000 5
  20231579.726 9  20231588.686 8 106317668.572 9  82844936.259 8        55.000 9
        50.000 8
  22245085.212 7  22245094.172 5 116898711.147 7  91089905.207 5        47.000 7
        34.000 5
  22409596.552 8  22409605.512 6 117763224.441 8  91763551.539 6        49.000 8
        36.000 6
  23357785.646 6  23357812.166 3 122745977.215 6  95646213.745 3        38.000 6
        18.000 3
 13 10 21  5 23 40.0000000  0  7G01G04G13G17G20G23G28
  24573262.318 6  24573277.898 3 129133365.291 6 100623402.283 3        36.000 6
        21.000 3
  21092665.500 8  21092676.400 6 110842706.801 8  86370940.266 6        49.000 8
        40.000 6
  22721880.330 7  22721893.470 5 119404290.229 7  93042303.782 5        45.000 7
        31.000 5
  20231557.386 9  20231566.626 8 106317550.607 9  82844844.340 8        54.000 9
        50.000 8
  22245635.172 7  22245644.332 5 116901602.123 7  91092157.912 5        47.000 7
        34.000 5
  22409450.012 8  22409458.312 6 117762452.558 8  91762950.070 6        49.000 8
        36.000 6
  23358401.166 6  23358428.726 3 122749214.485 6  95648736.250 3        38.000 6
        18.000 3
 13 10 21  5 23 41.0000000  0  7G01G04G13G17G20G23G28
  24573734.558 6  24573750.018 3 129135845.644 6 100625335.013 3        36.000 6
        20.000 3
  21092394.080 8  21092405.180 6 110841280.710 8  86369829.031 6        49.000 8
        41.000 6
  22721381.370 7  22721394.170 5 119401667.322 7  93040259.964 5        45.000 7
        31.000 5
  20231534.606 9  20231543.446 8 106317431.478 9  82844751.513 8        54.000 9
        50.000 8
  22246184.932 7  22246193.912 5 116904491.602 7  91094409.452 5        47.000 7
        34.000 5
  22409302.632 8  22409311.212 6 117761679.519 8  91762347.712 6        49.000 8
        36.000 6
  23359016.386 6  23359044.566 3 122752450.247 6  95651257.580 3        38.000 6
        18.000 3
 13 10 21  5 23 42.0000000  0  7G01G04G13G17G20G23G28
  24574205.858 6  24574221.618 3 129138324.762 6 100627266.792 3        36.000 6
        20.000 3
  21092122.700 8  21092133.620 6 110839853.592 8  86368716.995 6        50.000 8
        41.000 6
  22720882.270 7  22720894.710 5 119399043.515 7  93038215.451 5        45.000 7
        32.000 5
  20231511.986 9  20231520.626 8 106317311.656 9  82844658.140 8        54.000 9
        50.000 8
  22246734.992 7  22246743.732 5 116907380.103 7  91096660.226 5        47.000 7
        34.000 5
  22409155.072 8  22409164.052 6 117760905.793 8  91761744.813 6        49.000 8
        36.000 6
  23359632.226 6  23359659.906 3 122755684.800 6  95653777.974 3        38.000 6
        18.000 3
 13 10 21  5 23 43.0000000  0  7G01G04G13G17G20G23G28
  24574678.478 6  24574693.938 3 129140807.272 6 100629201.205 3        37.000 6
        20.000 3
  21091851.840 8  21091862.800 6 110838430.040 8  86367607.737 6        50.000 8
        41.000 6
  22720383.510 7  22720396.130 5 119396423.357 7  93036173.780 5        45.000 7
        31.000 5
  20231489.826 9  20231499.106 8 106317195.743 9  82844567.816 8        55.000 9
        50.000 8
  22247285.032 7  22247293.952 5 116910272.170 7  91098913.790 5        47.000 7
        34.000 5
  22409008.752 8  22409017.632 6 117760135.978 8  91761144.955 6        49.000 8
        36.000 6
  23360248.486 6  23360276.186 3 122758922.843 6  95656301.055 3        38.000 6
        18.000 3
 13 10 21  5 23 44.0000000  0  7G01G04G13G17G20G23G28
  24575149.318 6  24575166.098 3 129143286.884 6 100631133.370 3        37.000 6
        21.000 3
  21091580.560 8  21091591.220 6 110837003.779 8  86366496.363 6        50.000 8
        40.000 6
  22719884.650 7  22719897.470 5 119393800.608 7  93034130.090 5        45.000 7
        31.000 5
  20231467.206 9  20231476.146 8 106317077.447 9  82844475.642 8        55.000 9
        50.000 8
  22247834.812 7  22247843.932 5 116913161.506 7  91101165.232 5        47.000 7
        34.000 5
  22408861.632 8  22408870.472 5 117759363.795 8  91760543.262 5        49.000 8
        35.000 5
  23360864.186 6  23360891.306 3 122762158.095 6  95658821.977 3        38.000 6
        19.000 3
 13 10 21  5 23 45.0000000  0  7G01G04G13G17G20G23G28
  24575622.198 6  24575637.538 3 129145768.131 6 100633066.805 3        37.000 6
        21.000 3
  21091309.540 8  21091320.160 6 110835579.346 8  86365386.417 6        50.000 8
        41.000 6
  22719385.430 7  22719398.770 5 119391179.782 7  93032087.900 5        45.000 7
        32.000 5
  20231445.026 9  20231454.266 8 106316961.302 9  82844385.140 8        55.000 9
        50.000 8
  22248385.292 7  22248394.412 5 116916052.685 7  91103418.092 5        47.000 7
        33.000 5
  22408715.252 8  22408724.172 5 117758593.759 8  91759943.238 5        49.000 8
        35.000 5
  23361480.346 6  23361507.446 3 122765395.023 6  95661344.224 3        38.000 6
        18.000 3
 13 10 21  5 23 46.0000000  0  7G01G04G13G17G20G23G28
  24576094.018 6  24576109.738 3 129148248.818 6 100634999.787 3        37.000 6
        20.000 3
  21091038.100 8  21091049.000 6 110834154.535 8  86364276.177 6        50.000 8
        40.000 6
  22718887.070 7  22718899.730 5 119388558.686 7  93030045.494 5        45.000 7
        31.000 5
  20231422.966 9  20231431.906 8 106316845.116 9  82844294.607 8        55.000 9
        50.000 8
  22248935.032 7  22248944.772 5 116918943.493 7  91105670.668 5        47.000 7
        33.000 5
  22408568.652 8  22408577.652 6 117757823.660 8  91759343.163 6        49.000 8
        36.000 6
  23362096.326 6  23362123.286 3 122768631.476 6  95663866.111 3        38.000 6
        19.000 3
 13 10 21  5 23 47.0000000  0  7G01G04G13G17G20G23G28
  24576566.238 6  24576582.018 3 129150729.323 6 100636932.642 3        37.000 6
        21.000 3
  21090767.160 8  21090778.060 6 110832729.724 8  86363165.939 6        50.000 8
        41.000 6
  22718387.810 7  22718400.830 5 119385937.685 7  93028003.163 5        45.000 7
        31.000 5
  20231401.046 9  20231410.026 8 106316729.224 9  82844204.298 8        55.000 9
        50.000 8
  22249484.932 7  22249494.332 5 116921834.267 7  91107923.219 5        47.000 7
        34.000 5
  22408422.452 8  22408430.912 5 117757053.892 8  91758743.346 5        49.000 8
        35.000 5
  23362711.366 6  23362739.446 3 122771867.774 6  95666387.873 3        39.000 6
        19.000 3
 13 10 21  5 23 48.0000000  0  7G01G04G13G17G20G23G28
  24577038.338 6  24577053.998 3 129153208.680 6 100638864.595 3        36.000 6
        20.000 3
  21090495.920 8  21090506.240 6 110831303.957 8  86362054.952 6        50.000 8
        40.000 6
  22717888.790 7  22717902.090 5 119383315.850 7  93025960.180 5        45.000 7
        30.000 5
  20231378.966 9  20231388.226 8 106316612.731 9  82844113.527 8        55.000 9
        50.000 8
  22250035.652 7  22250044.252 5 116924724.085 7  91110175.023 5        46.000 7
        34.000 5
  22408275.532 8  22408284.412 6 117756283.501 8  91758143.043 6        49.000 8
        36.000 6
  23363327.766 6  23363355.106 3 122775103.036 6  95668908.818 3        39.000 6
        19.000 3
 13 10 21  5 23 49.0000000  0  7G01G04G13G17G20G23G28
  24577510.238 6  24577525.758 3 129155688.272 6 100640796.748 3        36.000 6
        21.000 3
  21090224.660 8  21090235.020 6 110829878.592 8  86360944.285 6        50.000 8
        40.000 6
  22717390.570 7  22717403.050 5 119380694.499 7  93023917.579 5        44.000 7
        30.000 5
  20231356.826 9  20231365.646 8 106316496.944 9  82844023.304 8        55.000 9
        50.000 8
  22250585.252 7  22250594.572 5 116927614.333 7  91112427.158 5        46.000 7
        33.000 5
  22408129.152 8  22408137.952 5 117755513.846 8  91757543.312 5        49.000 8
        35.000 5
  23363943.106 6  23363970.746 3 122778338.546 6  95671429.943 3        39.000 6
        20.000 3
 13 10 21  5 23 50.0000000  0  7G01G04G13G17G20G23G28
  24577982.358 6  24577997.858 3 129158170.054 6 100642730.619 3        36.000 6
        21.000 3
  21089953.980 8  21089964.540 6 110828455.617 8  86359835.476 6        50.000 8
        40.000 6
  22716891.930 7  22716904.550 5 119378075.663 7  93021876.935 5        45.000 7
        30.000 5
  20231335.406 9  20231344.286 8 106316383.924 9  82843935.236 8        55.000 9
        50.000 8
  22251135.252 7  22251145.272 5 116930506.936 7  91114681.131 5        46.000 7
        34.000 5
  22407983.252 8  22407991.932 5 117754746.900 8  91756945.694 5        49.000 8
        35.000 5
  23364560.266 6  23364587.046 3 122781576.397 6  95673952.921 3        39.000 6
        20.000 3
 13 10 21  5 23 51.0000000  0  7G01G04G13G17G20G23G28
  24578453.478 6  24578469.938 3 129160651.054 6 100644663.873 3        36.000 6
        20.000 3
  21089682.940 8  21089693.760 6 110827032.076 8  86358726.221 6        50.000 8
        40.000 6
  22716393.450 7  22716406.370 5 119375456.338 7  93019835.911 5        45.000 7
        31.000 5
  20231313.886 9  20231322.646 8 106316270.652 9  82843846.972 8        55.000 9
        50.000 8
  22251685.692 7  22251695.032 5 116933398.995 7  91116934.685 5        46.000 7
        32.000 5
  22407837.392 8  22407846.012 5 117753979.709 8  91756347.883 5        48.000 8
        35.000 5
  23365175.586 6  23365202.886 3 122784813.538 6  95676475.301 3        39.000 6
        20.000 3
 13 10 21  5 23 52.0000000  0  7G01G04G13G17G20G23G28
  24578926.158 6  24578941.778 3 129163131.972 6 100646597.048 3        36.000 6
        19.000 3
  21089412.040 8  21089423.320 6 110825608.613 8  86357617.035 6        50.000 8
        40.000 6
  22715894.970 7  22715908.170 5 119372837.197 7  93017795.034 5        45.000 7
        31.000 5
  20231292.346 9  20231301.146 8 106316157.779 9  82843759.017 8        55.000 9
        50.000 8
